{
  "data": [
    {
      "boxofficeId": "X0UVF",
      "id": "8043",
      "name": "B&B Port Arthur Central Mall",
      "location": {
        "address1": "3100 Highway 365",
        "address2": null,
        "city": "Port Arthur",
        "state": "TX",
        "zipCode": "77642",
        "geolocation": {
          "latitude": 29.95,
          "longitude": -93.9903
        }
      },
      "image": "https://fr.web.img3.acsta.net/img/57/4f/574f86d94ff70472296b398802ada5d5.png"
    },
    {
      "boxofficeId": "X0Y02",
      "id": "8088",
      "name": "B&B Theatres Amelia Island",
      "location": {
        "address1": "1132 South 14th Street",
        "address2": null,
        "city": "Saint Fernandina Beach",
        "state": "FL",
        "zipCode": "32034",
        "geolocation": {
          "latitude": 30.6549,
          "longitude": -81.4527
        }
      },
      "image": "https://fr.web.img2.acsta.net/img/4f/ee/4feecd32ce56f07380895bb0e39ee070.jpg"
    },
    {
      "boxofficeId": "X11HL",
      "id": "8093",
      "name": "B&B Theatres Ankeny 12",
      "location": {
        "address1": "1580 Southwest Market Street",
        "address2": null,
        "city": "Ankeny",
        "state": "IO",
        "zipCode": "50023",
        "geolocation": {
          "latitude": 41.701,
          "longitude": -93.5969
        }
      },
      "image": "https://fr.web.img3.acsta.net/img/d2/18/d218bdd6e773d43484d9ef32790a2add.png"
    },
    {
      "boxofficeId": "X04CS",
      "id": "8044",
      "name": "B&B Theatres Bolivar",
      "location": {
        "address1": "800 East Aldrich Road",
        "address2": null,
        "city": "Bolivar",
        "state": "MO",
        "zipCode": "65613",
        "geolocation": {
          "latitude": 37.5972,
          "longitude": -93.3993
        }
      },
      "image": "https://fr.web.img3.acsta.net/img/40/6b/406b0dce6a41f215a3495ed992055311.png"
    },
    {
      "boxofficeId": "X04JI",
      "id": "8045",
      "name": "B&B Theatres Chanute",
      "location": {
        "address1": "302 East Main Street",
        "address2": null,
        "city": "Chanute",
        "state": "KS",
        "zipCode": "66720",
        "geolocation": {
          "latitude": 37.6818,
          "longitude": -95.4492
        }
      },
      "image": "https://fr.web.img6.acsta.net/img/26/12/2612732d73f618f1d8d2cbf91085bb9b.png"
    },
    {
      "boxofficeId": "X04CG",
      "id": "8046",
      "name": "B&B Theatres Chillicothe",
      "location": {
        "address1": "2880 North Grand Drive",
        "address2": null,
        "city": "Chillicothe",
        "state": "MO",
        "zipCode": "64601",
        "geolocation": {
          "latitude": 39.8208,
          "longitude": -93.5547
        }
      },
      "image": "https://fr.web.img5.acsta.net/img/a6/a5/a6a55f27769035d8d3e0ef9fe24f7013.png"
    },
    {
      "boxofficeId": "X07FY",
      "id": "8047",
      "name": "B&B Theatres Claremore",
      "location": {
        "address1": "1407 West Country Club Road",
        "address2": null,
        "city": "Claremore",
        "state": "OK",
        "zipCode": "74017",
        "geolocation": {
          "latitude": 36.293,
          "longitude": -95.6275
        }
      },
      "image": "https://fr.web.img4.acsta.net/img/c8/11/c81162ad155ed499586c2c64f7b65744.png"
    },
    {
      "boxofficeId": "X04HL",
      "id": "8049",
      "name": "B&B Theatres Dodge City",
      "location": {
        "address1": "2601 Central - Village Square Mall",
        "address2": null,
        "city": "Dodge City",
        "state": "KS",
        "zipCode": "67801",
        "geolocation": {
          "latitude": 37.7801,
          "longitude": -100.0165
        }
      },
      "image": "https://fr.web.img2.acsta.net/img/79/2c/792ccfe17259ab32ef6a67c8645fa692.png"
    },
    {
      "boxofficeId": "X07HG",
      "id": "8050",
      "name": "B&B Theatres El Reno",
      "location": {
        "address1": "3000 South Country Club Road",
        "address2": null,
        "city": "El Reno",
        "state": "OK",
        "zipCode": "73036",
        "geolocation": {
          "latitude": 35.5051,
          "longitude": -97.9726
        }
      },
      "image": "https://fr.web.img6.acsta.net/img/d9/2c/d92c0317c2a597c44af9b26a95e52c9e.png"
    },
    {
      "boxofficeId": "X04IE",
      "id": "8051",
      "name": "B&B Theatres Festus",
      "location": {
        "address1": "1522 Parkway",
        "address2": null,
        "city": "Festus",
        "state": "MO",
        "zipCode": "63028",
        "geolocation": {
          "latitude": 38.2132,
          "longitude": -90.4134
        }
      },
      "image": "https://fr.web.img5.acsta.net/img/96/78/9678b066ecebb9e8d89eb8cf4d7f3db8.png"
    },
    {
      "boxofficeId": "X0UV8",
      "id": "8052",
      "name": "B&B Theatres Flinthills 8",
      "location": {
        "address1": "1614 Industrial Road",
        "address2": null,
        "city": "Emporia",
        "state": "KS",
        "zipCode": "66801",
        "geolocation": {
          "latitude": 38.4174,
          "longitude": -96.2169
        }
      },
      "image": "https://fr.web.img4.acsta.net/img/bd/a4/bda4cb342981360f70cfcdabd5aa670d.png"
    },
    {
      "boxofficeId": "X07QS",
      "id": "8053",
      "name": "B&B Theatres Fulton",
      "location": {
        "address1": "521 Commons Drive",
        "address2": null,
        "city": "Fulton",
        "state": "MO",
        "zipCode": "65251",
        "geolocation": {
          "latitude": 38.8489,
          "longitude": -91.9479
        }
      },
      "image": "https://fr.web.img2.acsta.net/img/60/70/6070c628974429d5460f85a122a71903.png"
    },
    {
      "boxofficeId": "X0MY0",
      "id": "8054",
      "name": "B&B Theatres Grain Valley 8",
      "location": {
        "address1": "1131 North East McQuerry Road",
        "address2": null,
        "city": "Grain Valley",
        "state": "MO",
        "zipCode": "64029",
        "geolocation": {
          "latitude": 39.0223,
          "longitude": -94.1934
        }
      },
      "image": "https://fr.web.img6.acsta.net/img/74/1b/741b812b8443e0d9b31d7fff007b109e.png"
    },
    {
      "boxofficeId": "X0ARP",
      "id": "8055",
      "name": "B&B Theatres Hannibal",
      "location": {
        "address1": "100 Main Street",
        "address2": null,
        "city": "Hannibal",
        "state": "MO",
        "zipCode": "63401",
        "geolocation": {
          "latitude": 39.7101,
          "longitude": -91.3549
        }
      },
      "image": "https://fr.web.img3.acsta.net/img/ad/81/ad813f7316d525391ecad0c5ce63369a.png"
    },
    {
      "boxofficeId": "X0FOP",
      "id": "8056",
      "name": "B&B Theatres Harrisonville",
      "location": {
        "address1": "2727 Cantrell Road",
        "address2": null,
        "city": "Harrisonville",
        "state": "MO",
        "zipCode": "64701",
        "geolocation": {
          "latitude": 38.661,
          "longitude": -94.3734
        }
      },
      "image": "https://fr.web.img6.acsta.net/img/bf/ce/bfce0facb5900d2e77bea26ef21d249f.png"
    },
    {
      "boxofficeId": "X068S",
      "id": "8058",
      "name": "B&B Theatres Iola",
      "location": {
        "address1": "1802 1/2 East Street",
        "address2": null,
        "city": "Iola",
        "state": "KS",
        "zipCode": "66749",
        "geolocation": {
          "latitude": 37.9222,
          "longitude": -95.3775
        }
      },
      "image": "https://fr.web.img4.acsta.net/img/b8/b8/b8b8a9421d3125340881d39c2861dfa4.png"
    },
    {
      "boxofficeId": "X0U08",
      "id": "8059",
      "name": "B&B Theatres Junction City Gem",
      "location": {
        "address1": "1016 West 6th Street",
        "address2": null,
        "city": "Junction City",
        "state": "KS",
        "zipCode": "66441",
        "geolocation": {
          "latitude": 39.0284,
          "longitude": -96.8478
        }
      },
      "image": "https://fr.web.img3.acsta.net/img/b3/ff/b3ff96ee31fbc951fbbedd22673b83be.png"
    },
    {
      "boxofficeId": "X10JB",
      "id": "8090",
      "name": "B&B Theatres Leavenworth",
      "location": {
        "address1": "225 Delaware",
        "address2": null,
        "city": "Leavenworth",
        "state": "KS",
        "zipCode": "66048",
        "geolocation": {
          "latitude": 39.3183,
          "longitude": -94.9112
        }
      },
      "image": "https://fr.web.img3.acsta.net/img/48/9d/489d010b8b930ed463021ab82ff94932.png"
    },
    {
      "boxofficeId": "X043F",
      "id": "8061",
      "name": "B&B Theatres Lebanon",
      "location": {
        "address1": "925 South Jefferson",
        "address2": null,
        "city": "Lebanon",
        "state": "MO",
        "zipCode": "65536",
        "geolocation": {
          "latitude": 37.6729,
          "longitude": -92.654
        }
      },
      "image": "https://fr.web.img6.acsta.net/img/d4/c2/d4c2f9a61f2c3cc1aefb922426a96904.png"
    },
    {
      "boxofficeId": "X0UVE",
      "id": "8062",
      "name": "B&B Theatres Lee's Summit 16",
      "location": {
        "address1": "1451 Northeast Douglas Street",
        "address2": null,
        "city": "Lee's Summit",
        "state": "MO",
        "zipCode": "64086",
        "geolocation": {
          "latitude": 38.9379,
          "longitude": -94.3783
        }
      },
      "image": "https://fr.web.img4.acsta.net/img/0c/88/0c88ee0bc478f209cac5d9def0eb1bec.png"
    },
    {
      "boxofficeId": "X019Q",
      "id": "8092",
      "name": "B&B Theatres Liberty 12",
      "location": {
        "address1": "2101 West Kansas",
        "address2": null,
        "city": "Liberty",
        "state": "MO",
        "zipCode": "64068",
        "geolocation": {
          "latitude": 39.2436,
          "longitude": -94.4538
        }
      },
      "image": "https://fr.web.img6.acsta.net/img/c6/86/c6865fe66d68a59dbcd02187ef01546c.png"
    },
    {
      "boxofficeId": "X0UVA",
      "id": "8064",
      "name": "B&B Theatres Mall 8",
      "location": {
        "address1": "1500 East 11th Street",
        "address2": null,
        "city": "Hutchinson",
        "state": "KS",
        "zipCode": "67504",
        "geolocation": {
          "latitude": 38.065,
          "longitude": -97.9013
        }
      },
      "image": "https://fr.web.img6.acsta.net/img/c7/dc/c7dc3845d857a7bea1506f92f1016bac.png"
    },
    {
      "boxofficeId": "X043C",
      "id": "8065",
      "name": "B&B Theatres McPherson",
      "location": {
        "address1": "316 North Main Street",
        "address2": null,
        "city": "McPherson",
        "state": "KS",
        "zipCode": "67460",
        "geolocation": {
          "latitude": 38.3718,
          "longitude": -97.6667
        }
      },
      "image": null
    },
    {
      "boxofficeId": "X0815",
      "id": "8066",
      "name": "B&B Theatres Miami",
      "location": {
        "address1": "222 North Main Street",
        "address2": null,
        "city": "Miami",
        "state": "OK",
        "zipCode": "74355",
        "geolocation": {
          "latitude": 36.878,
          "longitude": -94.8775
        }
      },
      "image": "https://fr.web.img3.acsta.net/img/9c/db/9cdb22c49fd5d43cadddd50db31396a4.png"
    },
    {
      "boxofficeId": "X0VBW",
      "id": "8067",
      "name": "B&B Theatres Missouri 6",
      "location": {
        "address1": "431 South Missouri Avenue",
        "address2": null,
        "city": "Clinton",
        "state": "MO",
        "zipCode": "64735",
        "geolocation": {
          "latitude": 38.3654,
          "longitude": -93.7573
        }
      },
      "image": "https://fr.web.img6.acsta.net/img/5b/b0/5bb09c970c6f4caa91230b17f770b94a.png"
    },
    {
      "boxofficeId": "X04K9",
      "id": "8068",
      "name": "B&B Theatres Moberly",
      "location": {
        "address1": "3000 North Morley",
        "address2": null,
        "city": "Moberly",
        "state": "MO",
        "zipCode": "65270",
        "geolocation": {
          "latitude": 39.4531,
          "longitude": -92.4329
        }
      },
      "image": "https://fr.web.img2.acsta.net/img/50/84/5084bd2b6c6b235c68f17cbe91fe5250.png"
    },
    {
      "boxofficeId": "X0433",
      "id": "8069",
      "name": "B&B Theatres Monett",
      "location": {
        "address1": "507 Plaza Drive",
        "address2": null,
        "city": "Monett",
        "state": "MO",
        "zipCode": "65708",
        "geolocation": {
          "latitude": 36.9118,
          "longitude": -93.9115
        }
      },
      "image": "https://fr.web.img2.acsta.net/img/2c/ab/2cabe7a851b737d743d68afe9bf5f5b0.png"
    },
    {
      "boxofficeId": "X01XS",
      "id": "8070",
      "name": "B&B Theatres Naples",
      "location": {
        "address1": "3855 Tamiami Trail East",
        "address2": null,
        "city": "Naples",
        "state": "FL",
        "zipCode": "34112",
        "geolocation": {
          "latitude": 26.1191,
          "longitude": -81.7584
        }
      },
      "image": "https://fr.web.img2.acsta.net/img/72/92/72923deabb911f2b36bb44039d9eb8ff.png"
    },
    {
      "boxofficeId": "X05GC",
      "id": "8071",
      "name": "B&B Theatres Neosho",
      "location": {
        "address1": "1601 Malcom Mosby Drive",
        "address2": null,
        "city": "Neosho",
        "state": "MO",
        "zipCode": "64850",
        "geolocation": {
          "latitude": 36.8328,
          "longitude": -94.3888
        }
      },
      "image": "https://fr.web.img6.acsta.net/img/f2/dc/f2dcb34853790fe1e92dafe40648e1c4.png"
    },
    {
      "boxofficeId": "X110Z",
      "id": "8091",
      "name": "B&B Theatres New Longview 7",
      "location": {
        "address1": "3201 Southwest Fascination Drive",
        "address2": null,
        "city": "Lee's Summit",
        "state": "MO",
        "zipCode": "64081",
        "geolocation": {
          "latitude": 38.9113,
          "longitude": -94.4478
        }
      },
      "image": "https://fr.web.img4.acsta.net/img/fc/a0/fca03707c7c40b56f42cfd21669eebc4.png"
    },
    {
      "boxofficeId": "X0UVG",
      "id": "8072",
      "name": "B&B Theatres Northland 14",
      "location": {
        "address1": "4900 NE 80th Street",
        "address2": null,
        "city": "Kansas City",
        "state": "MO",
        "zipCode": "64119",
        "geolocation": {
          "latitude": 39.239,
          "longitude": -94.5219
        }
      },
      "image": "https://fr.web.img6.acsta.net/img/66/2f/662fff0d594a2244ed62f7d861a7f8fd.png"
    },
    {
      "boxofficeId": "X0UVH",
      "id": "8074",
      "name": "B&B Theatres Overland Park 16",
      "location": {
        "address1": "8601 West 135th Street",
        "address2": null,
        "city": "Overland Park",
        "state": "KS",
        "zipCode": "66223",
        "geolocation": {
          "latitude": 38.8835,
          "longitude": -94.6852
        }
      },
      "image": "https://fr.web.img2.acsta.net/img/e3/40/e34025e2064f8f37744342a1188f809a.png"
    },
    {
      "boxofficeId": "X0LMM",
      "id": "8075",
      "name": "B&B Theatres Ozark",
      "location": {
        "address1": "620 North 25th Street",
        "address2": null,
        "city": "Ozark",
        "state": "MO",
        "zipCode": "65721",
        "geolocation": {
          "latitude": 37.0757,
          "longitude": -93.2372
        }
      },
      "image": "https://fr.web.img3.acsta.net/img/af/c2/afc263261d9f3b93f2b2333c67e4381d.png"
    },
    {
      "boxofficeId": "X06N6",
      "id": "8076",
      "name": "B&B Theatres Sapulpa",
      "location": {
        "address1": "1245 New Sapulpa Road",
        "address2": null,
        "city": "Sapulpa",
        "state": "OK",
        "zipCode": "74066",
        "geolocation": {
          "latitude": 36.0145,
          "longitude": -96.0979
        }
      },
      "image": "https://fr.web.img2.acsta.net/img/f5/ec/f5ec694c6a3b5bc7b1c8dc66d84c0dd2.png"
    },
    {
      "boxofficeId": "X05XM",
      "id": "8077",
      "name": "B&B Theatres Sebring",
      "location": {
        "address1": "3750 US 27 North",
        "address2": null,
        "city": "Sebring",
        "state": "FL",
        "zipCode": "33870",
        "geolocation": {
          "latitude": 27.5162,
          "longitude": -81.4954
        }
      },
      "image": "https://fr.web.img6.acsta.net/img/90/9e/909e08744c10499246076e14e2bab956.png"
    },
    {
      "boxofficeId": "X10IB",
      "id": "8078",
      "name": "B&B Theatres Shawnee 18",
      "location": {
        "address1": "16301 Midland Drive",
        "address2": null,
        "city": "Shawnee",
        "state": "KS",
        "zipCode": "66217",
        "geolocation": {
          "latitude": 38.9988,
          "longitude": -94.7753
        }
      },
      "image": "https://fr.web.img6.acsta.net/img/a7/ac/a7ac17d7672a479249a75a4464683273.png"
    },
    {
      "boxofficeId": "X0UVB",
      "id": "8079",
      "name": "B&B Theatres Starworld 20",
      "location": {
        "address1": "10301 South Memorial Drive",
        "address2": null,
        "city": "Tulsa",
        "state": "OK",
        "zipCode": "74133",
        "geolocation": {
          "latitude": 36.0125,
          "longitude": -95.8862
        }
      },
      "image": "https://fr.web.img4.acsta.net/img/29/fd/29fddc46b98105b311e29ccd7b6cdb93.png"
    },
    {
      "boxofficeId": "X02LR",
      "id": "8080",
      "name": "B&B Theatres Tavernier",
      "location": {
        "address1": "91298 Overseas Highway",
        "address2": null,
        "city": "Tavernier",
        "state": "FL",
        "zipCode": "33070",
        "geolocation": {
          "latitude": 25.0029,
          "longitude": -80.5252
        }
      },
      "image": "https://fr.web.img6.acsta.net/img/a5/21/a5210aff82519284cb5247b83dff5c85.png"
    },
    {
      "boxofficeId": "X019N",
      "id": "8081",
      "name": "B&B Theatres Twin Drive-In",
      "location": {
        "address1": "1320 North 291 & Kentucky Road",
        "address2": null,
        "city": "Independence",
        "state": "MO",
        "zipCode": "64055",
        "geolocation": {
          "latitude": 39.1277,
          "longitude": -94.3861
        }
      },
      "image": "https://fr.web.img5.acsta.net/img/41/54/4154f9480244b434bfb03341392dbc17.png"
    },
    {
      "boxofficeId": "X07OP",
      "id": "8094",
      "name": "B&B Theatres Venice 12",
      "location": {
        "address1": "2101 Tamiami Trail South",
        "address2": null,
        "city": "Venice",
        "state": "FL",
        "zipCode": "34292",
        "geolocation": {
          "latitude": 27.0569,
          "longitude": -82.4113
        }
      },
      "image": "https://fr.web.img6.acsta.net/img/d7/45/d7458e7b3ca5902cf8cace93334177fe.png"
    },
    {
      "boxofficeId": "X035I",
      "id": "8085",
      "name": "B&B Theatres Vicksburg",
      "location": {
        "address1": "3505 Pemberton Boulevard",
        "address2": null,
        "city": "Vicksburg",
        "state": "MS",
        "zipCode": "39180",
        "geolocation": {
          "latitude": 32.3152,
          "longitude": -90.8798
        }
      },
      "image": "https://fr.web.img2.acsta.net/img/01/5f/015f5ceacb55ef392cb0e953d608e209.png"
    },
    {
      "boxofficeId": "X0U09",
      "id": "8082",
      "name": "B&B Theatres Waynesville",
      "location": {
        "address1": "1200 GW Lane S",
        "address2": null,
        "city": "Waynesville",
        "state": "MO",
        "zipCode": "65583",
        "geolocation": {
          "latitude": 37.8097,
          "longitude": -92.2152
        }
      },
      "image": "https://fr.web.img5.acsta.net/img/25/b0/25b00adcb06ee04335f1d3e4e5ecb499.png"
    },
    {
      "boxofficeId": "X0WUF",
      "id": "8086",
      "name": "B&B Theatres Wentzville",
      "location": {
        "address1": "100 Wentzville Bluffs Drive",
        "address2": null,
        "city": "Wentzville",
        "state": "MO",
        "zipCode": "63385",
        "geolocation": {
          "latitude": 38.8033,
          "longitude": -90.8592
        }
      },
      "image": "https://fr.web.img5.acsta.net/img/bc/e0/bce052b247304be6c23e2f9107bc3ccd.png"
    },
    {
      "boxofficeId": "X0JZ8",
      "id": "8083",
      "name": "B&B Theatres Wildwood 10",
      "location": {
        "address1": "16820 Main Street",
        "address2": null,
        "city": "Wildwood",
        "state": "GA",
        "zipCode": "63040",
        "geolocation": {
          "latitude": 38.5807,
          "longitude": -90.6298
        }
      },
      "image": "https://fr.web.img3.acsta.net/img/a7/c5/a7c5184d046d3bc1bf7af15125499325.png"
    },
    {
      "boxofficeId": "X0N39",
      "id": "8084",
      "name": "B&B Theatres Wylie 12",
      "location": {
        "address1": "711 Woodbridge Parkway",
        "address2": null,
        "city": "Wylie",
        "state": "TX",
        "zipCode": "75098",
        "geolocation": {
          "latitude": 33.0051,
          "longitude": -96.5753
        }
      },
      "image": "https://fr.web.img4.acsta.net/img/49/5b/495b973606aabd3e6388da7659bd6609.png"
    }
  ]
}